[
  {
    "name": "American University of Beirut Medical Center",
    "phone_numbers": ["01350000", "01340460", "01374374", "01374444"],
    "location": "Hamra",
    "latitude": "33.89764685205973",
    "longitude": "35.48582385166365"
  },
  {
    "name": "Makassed Hospital",
    "phone_numbers": ["01636000"],
    "location": "Mazraa",
    "latitude": "33.8753021",
    "longitude": "35.5040952"
  },
  {
    "name": "Rafic Hariri University Hospital",
    "phone_numbers": ["01830000"],
    "location": "Ghobeiry",
    "latitude": "33.86367845006377",
    "longitude": "35.49083024377678"
  },
  {
    "name": "Najjar Hospital",
    "phone_numbers": ["01340626"],
    "location": "Hamra",
    "latitude": "33.8968158",
    "longitude": "35.4867246"
  },
  {
    "name": "Beirut Hospital",
    "phone_numbers": ["01850213", "01850216"],
    "location": "Mar Elias",
    "latitude": "33.87252845219628",
    "longitude": "35.49181058130887"
  },
  {
    "name": "Zahraa Hospital",
    "phone_numbers": ["01851773", "01851040", "01853456", "01821671", "01853407"],
    "location": "Ghobeiry",
    "latitude": "33.8640184",
    "longitude": "35.4868211"
  },
  {
    "name": "Fouad Khoury Hospital",
    "phone_numbers": ["01742140", "01344881", "01344882", "01742143", "01742147"],
    "location": "Hamra",
    "latitude": "33.898572",
    "longitude": "35.484137"
  },
  {
    "name": "Haidar Hospital",
    "phone_numbers": ["01632360", "01632091", "01632707"],
    "location": "Mazraa",
    "latitude": "33.882042",
    "longitude": "35.50416017387824"
  },
  {
    "name": "Trad Hospital",
    "phone_numbers": ["01369494", "01366131", "01363416"],
    "location": "Ain Al Mraiseh",
    "latitude": "33.8968361",
    "longitude": "35.4918642"
  },
  {
    "name": "Bakhaazy Hospital",
    "phone_numbers": ["01360890"],
    "location": "Hamra",
    "latitude": "33.897288",
    "longitude": "35.488568"
  },
  {
    "name": "Clemenceau Medical Center",
    "phone_numbers": ["1240"],
    "location": "Ain Al Mraiseh",
    "latitude": "33.8976822",
    "longitude": "35.4902233"
  },
  {
    "name": "Mother And Baby Care Hospital",
    "phone_numbers": ["01788767"],
    "location": "Sanayeh",
    "latitude": "33.887574",
    "longitude": "35.485755"
  },
  {
    "name": "Hotel Dieu De France",
    "phone_numbers": ["01604000", "01615300", "01615400"],
    "location": "Ashrafieh",
    "latitude": "33.8820289",
    "longitude": "35.5195856"
  },
  {
    "name": "St. Georges Hospital",
    "phone_numbers": ["1287", "01441402"],
    "location": "Ashrafieh",
    "latitude": "33.8937793",
    "longitude": "35.523659"
  },
  {
    "name": "Rizk Hospital",
    "phone_numbers": ["01328800", "01200800", "01219907"],
    "location": "Mar Mitr",
    "latitude": "33.885264",
    "longitude": "35.515033"
  },
  {
    "name": "Geitawi Hospital",
    "phone_numbers": ["01590000", "01566947"],
    "location": "Ashrafieh",
    "latitude": "33.89385849682657",
    "longitude": "35.53072985711945"
  },
  {
    "name": "Rosair Hospital",
    "phone_numbers": ["01581140", "01581141", "01581142", "01447980", "01447981"],
    "location": "Gemmayzeh",
    "latitude": "33.8956004",
    "longitude": "35.5148936"
  },
  {
    "name": "Karantina Hospital",
    "phone_numbers": ["01442108", "01442110", "01442111"],
    "location": "Karantina",
    "latitude": "33.9019162",
    "longitude": "35.5305653"
  },
  {
    "name": "Mouarbess Hospital",
    "phone_numbers": ["01389292", "01389293", "01389294", "01389295"],
    "location": "Chiah",
    "latitude": "33.8729757",
    "longitude": "35.5189565"
  },
  {
    "name": "Notre Dame de Lourdes Hospital",
    "phone_numbers": ["01390006", "01390007"],
    "location": "Chiah",
    "latitude": "33.8698",
    "longitude": "35.518"
  },
  {
    "name": "Mont Liban Hospital",
    "phone_numbers": ["05957000", "05955445", "05955855"],
    "location": "Baabda",
    "latitude": "33.859782",
    "longitude": "35.528157"
  },
  {
    "name": "Hayat Hospital",
    "phone_numbers": ["01277540", "01546200"],
    "location": "Baabda",
    "latitude": "33.8578028",
    "longitude": "35.5252089"
  },
  {
    "name": "Hayek Hospital",
    "phone_numbers": ["01481333", "01481788", "01499142", "01499143"],
    "location": "Sin el Fil",
    "latitude": "33.8704316",
    "longitude": "35.5378376"
  },
  {
    "name": "Hopital Libano-Canadien",
    "phone_numbers": ["01511488", "01511489", "01511490", "01511491"],
    "location": "Sin el Fil",
    "latitude": "33.8720506",
    "longitude": "35.53509"
  },
  {
    "name": "Hopital Militaire",
    "phone_numbers": ["01395400", "01381000", "01382777", "01387400"],
    "location": "Badaro",
    "latitude": "33.8743011",
    "longitude": "35.5133743"
  },
  {
    "name": "Levant Hospital",
    "phone_numbers": ["01482632", "01501500"],
    "location": "Sin el Fil",
    "latitude": "33.871417",
    "longitude": "35.540522"
  },
  {
    "name": "Sahel Hospital",
    "phone_numbers": [
      "01858333", "01858334", "01858335", "01858336", "01858337", "01858338", "01858339"
    ],
    "location": "Ghobeiry",
    "latitude": "33.8580307",
    "longitude": "35.5035767"
  },
  {
    "name": "Bahman Hospital",
    "phone_numbers": ["01556555", "01557555", "01558555", "01544000"],
    "location": "Haret Hreik",
    "latitude": "33.8535447",
    "longitude": "35.5059181"
  },
  {
    "name": "Haifa Hospital",
    "phone_numbers": ["03813109"],
    "location": "Borj El Brajneh",
    "latitude": "33.846598",
    "longitude": "35.50209494206338"
  },
  {
    "name": "Bourj / Khansa Hospital",
    "phone_numbers": ["01474716", "01474717", "01474718", "01474719", "01474720", "01474721"],
    "location": "Borj El Brajneh",
    "latitude": "33.8428",
    "longitude": "35.5091"
  },
  {
    "name": "Rassoul Al Aazam Hospital",
    "phone_numbers": ["01452700", "01456456"],
    "location": "Borj El Brajneh",
    "latitude": "33.8439832",
    "longitude": "35.4988016"
  },
  {
    "name": "Hopital Notre Dame De Liban",
    "phone_numbers": [
      "09644644", "09639040", "09937401", "09937402", "09937403", "09937404", "09937405"
    ],
    "location": "Jounieh",
    "latitude": "33.9816965",
    "longitude": "35.6277894"
  },
  {
    "name": "St. Louis Hospital",
    "phone_numbers": ["09934607", "09934182", "09912790", "09934288"],
    "location": "Haret Sakher",
    "latitude": "33.99310976619979",
    "longitude": "35.64055990484003"
  },
  {
    "name": "St. Georges Ajaltoun Hospital",
    "phone_numbers": ["09234201", "09234202", "09234212"],
    "location": "Ajaltoun",
    "latitude": "33.960177",
    "longitude": "35.6875976"
  },
  {
    "name": "Hajj Hospital",
    "phone_numbers": ["09951755", "09951756", "09951757"],
    "location": "Ashkout",
    "latitude": "33.988855",
    "longitude": "35.715049"
  },
  {
    "name": "Bouar Hospital",
    "phone_numbers": ["09448721"],
    "location": "Bouar",
    "latitude": "34.0449889",
    "longitude": "35.6483747"
  },
  {
    "name": "Kortbawy Hospital",
    "phone_numbers": ["09855410", "09855411", "09855413", "09855414", "09855415", "09855416"],
    "location": "Adma",
    "latitude": "34.0198089",
    "longitude": "35.6485369"
  },
  {
    "name": "Serhal Hospital",
    "phone_numbers": ["04405901", "04405050", "0403203520"],
    "location": "Mtayleb",
    "latitude": "33.9150837",
    "longitude": "35.6084525"
  },
  {
    "name": "The Middle East Institute Of Health",
    "phone_numbers": ["04712111"],
    "location": "Bsalim",
    "latitude": "33.9043464",
    "longitude": "35.5976281"
  },
  {
    "name": "Saydeh Hospital",
    "phone_numbers": ["04713100", "04713101", "04713102", "04713103"],
    "location": "Antelias",
    "latitude": "33.91036287003821",
    "longitude": "35.58757879680601"
  },
  {
    "name": "Eye And Ear Hospital",
    "phone_numbers": [
      "04521130", "04521131", "04521132", "04521133", "04521134", "04521135", "04521136", "04521137"
    ],
    "location": "Dbayeh",
    "latitude": "33.9270213",
    "longitude": "35.5915513"
  },
  {
    "name": "Beit Chabeb Hospital",
    "phone_numbers": ["04980740", "04980621"],
    "location": "Beit Chabab",
    "latitude": "33.93237575853897",
    "longitude": "35.67526976878305"
  },
  {
    "name": "Bhannes Hospital",
    "phone_numbers": ["04983770"],
    "location": "Bharsaf",
    "latitude": "33.9051867",
    "longitude": "35.6562684"
  },
  {
    "name": "Dahr Al Bashek Hospital",
    "phone_numbers": [
      "04872141",
      "04872142",
      "04872143",
      "04872144",
      "04872145",
      "04872146",
      "04872147",
      "04872150",
      "04872151"
    ],
    "location": "Roumieh",
    "latitude": "33.8830158",
    "longitude": "35.5990884"
  },
  {
    "name": "Bellevue Medical Center",
    "phone_numbers": ["1565", "01682666"],
    "location": "Mansouriyeh",
    "latitude": "33.8479225",
    "longitude": "35.5595111"
  },
  {
    "name": "Hopital Notre Dame De Secours",
    "phone_numbers": ["09940400"],
    "location": "Jbeil",
    "latitude": "34.128076",
    "longitude": "35.6589982"
  },
  {
    "name": "Hopital Notre Dame Martine",
    "phone_numbers": ["09540017", "09541975", "09946177"],
    "location": "Jbeil",
    "latitude": "34.1157158",
    "longitude": "35.6525717"
  },
  {
    "name": "St. Michel Hospital",
    "phone_numbers": ["09621033", "09622034"],
    "location": "Aamchit",
    "latitude": "34.14407619958137",
    "longitude": "35.64591785122862"
  },
  {
    "name": "Abou Jawdeh Hospital",
    "phone_numbers": ["04716000", "04718000"],
    "location": "Jal El Dib",
    "latitude": "33.907222",
    "longitude": "35.581423"
  },
  {
    "name": "Arz Hospital",
    "phone_numbers": ["01876770", "01876771", "01876772", "01876773", "01876774"],
    "location": "Jal El Dib",
    "latitude": "33.8991427",
    "longitude": "35.5731811"
  },
  {
    "name": "Haroun Hospital",
    "phone_numbers": [
      "01897300",
      "01897301",
      "01897302",
      "01897303",
      "01897304",
      "01875052",
      "01875053",
      "01875054",
      "01875055"
    ],
    "location": "Jal El Dib",
    "latitude": "33.9007598",
    "longitude": "35.5719408"
  },
  {
    "name": "St. Joseph Hospital",
    "phone_numbers": ["01240111"],
    "location": "Baouchriyeh",
    "latitude": "33.8930318",
    "longitude": "35.5545545"
  },
  {
    "name": "Hopital De La Croix",
    "phone_numbers": [
      "04710224", "04710225", "04710226", "04710227", "04710228", "04710228", "04710230", "04710231"
    ],
    "location": "Zalka",
    "latitude": "33.9010989",
    "longitude": "35.5849167"
  },
  {
    "name": "Bitar Hospital",
    "phone_numbers": ["01686601", "01686602", "01686603", "01686604"],
    "location": "Baouchriyeh",
    "latitude": "33.8794724",
    "longitude": "35.5604673"
  },
  {
    "name": "St. Jean Hospital",
    "phone_numbers": ["01872747"],
    "location": "Baouchriyeh",
    "latitude": "33.8784",
    "longitude": "35.5625"
  },
  {
    "name": "Al Jabal Hospital",
    "phone_numbers": ["05530432"],
    "location": "Qornayel",
    "latitude": "33.84599289898441",
    "longitude": "35.72226951723686"
  },
  {
    "name": "Hamlin Hospital",
    "phone_numbers": ["05530004"],
    "location": "Hammana",
    "latitude": "33.819723",
    "longitude": "35.718802"
  },
  {
    "name": "Hopital Libano Francais",
    "phone_numbers": [
      "08810121", "08810122", "08810123", "08810124", "08810125", "08810126", "08810127"
    ],
    "location": "Zahleh",
    "latitude": "33.833433",
    "longitude": "35.912482"
  },
  {
    "name": "Khoury Hospital",
    "phone_numbers": ["08807000", "08807001", "08807002", "08811180", "08811181", "08811182"],
    "location": "Zahleh",
    "latitude": "33.8528991",
    "longitude": "35.8956661"
  },
  {
    "name": "Tell Shiha Hospital",
    "phone_numbers": ["08807782", "08807783", "08807784", "08807785"],
    "location": "Zahleh",
    "latitude": "33.8407536",
    "longitude": "35.9055648"
  },
  {
    "name": "Khatib Hospital",
    "phone_numbers": ["08930570", "08930571"],
    "location": "Maalaqah",
    "latitude": "33.8448209",
    "longitude": "35.9210535"
  },
  {
    "name": "Elias Hraoui Governmental Hospital",
    "phone_numbers": ["08803188", "08823320", "08823415"],
    "location": "Maalaqah",
    "latitude": "33.8431",
    "longitude": "35.9185"
  },
  {
    "name": "Rayak Hospital",
    "phone_numbers": ["08901300", "08901301", "08900751", "08900752", "08900753"],
    "location": "Halba",
    "latitude": "33.86395720970292",
    "longitude": "36.01095941029289"
  },
  {
    "name": "Temnine Hospital",
    "phone_numbers": ["08910998"],
    "location": "Temnine El Tahta",
    "latitude": "33.8718971",
    "longitude": "35.9977829"
  },
  {
    "name": "Mayss Hospital",
    "phone_numbers": ["08542300", "08542301"],
    "location": "Jdita",
    "latitude": "33.8144",
    "longitude": "35.854"
  },
  {
    "name": "Bekaa Hospital",
    "phone_numbers": ["08543150", "08543151", "08543152", "08543153", "08543154"],
    "location": "Taalbaiya",
    "latitude": "33.80802898432913",
    "longitude": "35.86810365988546"
  },
  {
    "name": "Chtoura Hospital",
    "phone_numbers": ["08544022", "08544023", "08544024", "08544025"],
    "location": "Chtaura",
    "latitude": "33.8193064",
    "longitude": "35.8588406"
  },
  {
    "name": "Eben Sina Hospital",
    "phone_numbers": ["08371811"],
    "location": "Baalbek",
    "latitude": "34.027585",
    "longitude": "36.1968568"
  },
  {
    "name": "Baalbeck Governmental Hospital",
    "phone_numbers": ["08370022"],
    "location": "Baalbek",
    "latitude": "33.9990124",
    "longitude": "36.213784"
  },
  {
    "name": "Tatary Hospital",
    "phone_numbers": ["08370799", "08371903"],
    "location": "Baalbek",
    "latitude": "34.01072839581698",
    "longitude": "36.20559757382614"
  },
  {
    "name": "Al Ahly Hospital",
    "phone_numbers": ["08340023", "03455856"],
    "location": "Douris",
    "latitude": "33.978056",
    "longitude": "36.1475"
  },
  {
    "name": "Al Mortada Hospital",
    "phone_numbers": ["08377880"],
    "location": "Douris",
    "latitude": "33.9916",
    "longitude": "36.1742"
  },
  {
    "name": "Ablahh Hospital",
    "phone_numbers": ["08951231"],
    "location": "Ablah",
    "latitude": "33.86732495077401",
    "longitude": "35.97277164507944"
  },
  {
    "name": "Rayan Hospital",
    "phone_numbers": ["08373682", "08372182"],
    "location": "Baalbek",
    "latitude": "34.0268634135948",
    "longitude": "36.19576619061706"
  },
  {
    "name": "Dar El Hekma Hospital",
    "phone_numbers": ["08379136", "08379137", "08379138"],
    "location": "Baalbek",
    "latitude": "34.03805268933189",
    "longitude": "36.19066561228679"
  },
  {
    "name": "Dar El Amal University Hospital",
    "phone_numbers": ["08340620", "08340621", "08340622", "08340623", "08340624", "08371901"],
    "location": "Douris",
    "latitude": "33.9836901",
    "longitude": "36.1612235"
  },
  {
    "name": "Farhat Hospital",
    "phone_numbers": ["08660101", "08660102"],
    "location": "Joub Jannine",
    "latitude": "33.6298455",
    "longitude": "35.8039285"
  },
  {
    "name": "El Assy Hospital",
    "phone_numbers": ["08200238", "08200795"],
    "location": "Hermel",
    "latitude": "34.39578820561943",
    "longitude": "36.38537962038706"
  },
  {
    "name": "Hermel Governmental Hospital",
    "phone_numbers": ["08200599"],
    "location": "Hermel",
    "latitude": "34.39593",
    "longitude": "36.3833038"
  },
  {
    "name": "Batoul Hospital",
    "phone_numbers": ["08201151"],
    "location": "Hermel",
    "latitude": "34.3819052",
    "longitude": "36.4246032"
  },
  {
    "name": "Universal Hospital",
    "phone_numbers": ["08210560"],
    "location": "Ras Baalbek",
    "latitude": "34.2689932",
    "longitude": "36.4003467"
  },
  {
    "name": "Al Atibaa Hospital",
    "phone_numbers": ["08333918"],
    "location": "Hammarah",
    "latitude": "33.64665752564504",
    "longitude": "35.87803185657831"
  },
  {
    "name": "Bahmad Hospital",
    "phone_numbers": ["08591108"],
    "location": "Dahr El Ahmar",
    "latitude": "33.52570237986163",
    "longitude": "35.83429211599731"
  },
  {
    "name": "Rachaya Governmental Hospital",
    "phone_numbers": ["08591503", "08591504"],
    "location": "Rachaiya",
    "latitude": "33.5095991",
    "longitude": "35.8271523"
  },
  {
    "name": "Hammoud Hospital",
    "phone_numbers": ["07721021", "07723888", "07725152", "07723111"],
    "location": "Saida",
    "latitude": "33.55981652179091",
    "longitude": "35.37605201850976"
  },
  {
    "name": "Labib Hospital",
    "phone_numbers": ["07723444"],
    "location": "Saida",
    "latitude": "33.5560725",
    "longitude": "35.3738319"
  },
  {
    "name": "Dalaa Hospital",
    "phone_numbers": ["07723400", "07723244", "07724088", "07725181"],
    "location": "Saida",
    "latitude": "33.5571728",
    "longitude": "35.377547"
  },
  {
    "name": "Cheaib Hospital",
    "phone_numbers": ["07723333", "07722555", "07724900"],
    "location": "Saida",
    "latitude": "33.55080420305237",
    "longitude": "35.36864627019695"
  },
  {
    "name": "Al Raai Hospital",
    "phone_numbers": ["07222023", "07222024", "07222025", "07222026", "07222643"],
    "location": "Ghaziyeh",
    "latitude": "33.532167",
    "longitude": "35.362262"
  },
  {
    "name": "Elia Hospital",
    "phone_numbers": ["07721333"],
    "location": "Saida",
    "latitude": "33.56295",
    "longitude": "35.37955"
  },
  {
    "name": "Nakib Hospital",
    "phone_numbers": ["07721200", "07721721"],
    "location": "Hlaliyeh",
    "latitude": "33.5663125",
    "longitude": "35.3897272"
  },
  {
    "name": "Hajj Jiyeh Hospital",
    "phone_numbers": ["07996014"],
    "location": "Jiyeh",
    "latitude": "33.66281961646907",
    "longitude": "35.41990450350626"
  },
  {
    "name": "Hamshary Hospital",
    "phone_numbers": ["07724881", "07724929"],
    "location": "Miyeh w Miyeh",
    "latitude": "33.542986",
    "longitude": "35.3975285"
  },
  {
    "name": "Kassab Hospital",
    "phone_numbers": ["07723700", "07731540", "07731541", "07723900"],
    "location": "Hlaliyeh",
    "latitude": "33.5687435",
    "longitude": "35.3916391"
  },
  {
    "name": "Al Chab Nabih Hospital",
    "phone_numbers": ["07720444"],
    "location": "Saida",
    "latitude": "33.55889",
    "longitude": "35.37138"
  },
  {
    "name": "Kods Hospital",
    "phone_numbers": ["07750649"],
    "location": "Haret Saida",
    "latitude": "33.5504",
    "longitude": "35.3864"
  },
  {
    "name": "Osseiran Hospital",
    "phone_numbers": ["07726078"],
    "location": "Saida",
    "latitude": "33.55336",
    "longitude": "35.36986"
  },
  {
    "name": "Saida Governmental Hospital",
    "phone_numbers": ["07722130", "07721606", "07751329"],
    "location": "Saida",
    "latitude": "33.5458082",
    "longitude": "35.3819086"
  },
  {
    "name": "Jezzine Hospital",
    "phone_numbers": ["07780106"],
    "location": "Jezzine",
    "latitude": "33.538286",
    "longitude": "35.580872"
  },
  {
    "name": "Alaa Eddine Hospital",
    "phone_numbers": ["07443200", "07443202", "07443203"],
    "location": "Sarafand",
    "latitude": "33.4597435",
    "longitude": "35.2893823"
  },
  {
    "name": "Kharroubi Hospital",
    "phone_numbers": ["07222558"],
    "location": "Sarafand",
    "latitude": "33.4531",
    "longitude": "35.2867"
  },
  {
    "name": "Nabatieh Hospital",
    "phone_numbers": [
      "07766777",
      "07766888",
      "07767702",
      "07767703",
      "07767704",
      "07767705",
      "07767706",
      "07767707",
      "07767708"
    ],
    "location": "Nabatiyeh",
    "latitude": "33.3897372",
    "longitude": "35.4828307"
  },
  {
    "name": "Al Janoub Hospital",
    "phone_numbers": ["07764529", "07764530", "07760151", "07760152"],
    "location": "Nabatiyeh",
    "latitude": "33.3773755",
    "longitude": "35.4821723"
  },
  {
    "name": "Ghandour Hospital",
    "phone_numbers": ["07762542", "07761590", "07760455"],
    "location": "Nabatiyeh",
    "latitude": "33.376",
    "longitude": "35.4842"
  },
  {
    "name": "Fanar Hospital",
    "phone_numbers": ["07505290", "07505295"],
    "location": "Nabatiyeh",
    "latitude": "33.46178",
    "longitude": "35.38566"
  },
  {
    "name": "Al Najdeh Al Chaabieh Hospital",
    "phone_numbers": ["07530970", "07530971", "07530972", "07530973"],
    "location": "Nabatiyeh",
    "latitude": "33.39288052612063",
    "longitude": "35.49033615621847"
  },
  {
    "name": "Ragheb Harb Hospital",
    "phone_numbers": ["07769767", "07769768", "07769132"],
    "location": "Nabatiyeh",
    "latitude": "33.39",
    "longitude": "35.4457"
  },
  {
    "name": "Hopital Islamique",
    "phone_numbers": ["06210186", "06210533", "06210179", "06610072", "06610073", "06205875"],
    "location": "Tripoli",
    "latitude": "34.4395",
    "longitude": "35.8366"
  },
  {
    "name": "Nini Hospital",
    "phone_numbers": ["06431400", "06433293", "06442283", "06442284", "06442285", "06442286"],
    "location": "Tripoli",
    "latitude": "34.4355955",
    "longitude": "35.8305423"
  },
  {
    "name": "Mazloum Hospital",
    "phone_numbers": ["06628303", "06628304", "06430326", "06430327", "06430328", "06430329"],
    "location": "Tripoli",
    "latitude": "34.4319542",
    "longitude": "35.8326432"
  },
  {
    "name": "Mounla Hospital",
    "phone_numbers": ["06210849", "06613810", "06613811", "06600111", "06600112", "06600113"],
    "location": "Tripoli",
    "latitude": "34.440845",
    "longitude": "35.8299522"
  },
  {
    "name": "Haykal Hospital",
    "phone_numbers": ["06411111"],
    "location": "Tripoli",
    "latitude": "34.4123961",
    "longitude": "35.832097"
  },
  {
    "name": "Al Salam Hospital",
    "phone_numbers": [
      "06436748",
      "06435900",
      "06435901",
      "06435902",
      "06435903",
      "06411701",
      "06411702",
      "06411703",
      "06411704"
    ],
    "location": "Tripoli",
    "latitude": "34.4214453",
    "longitude": "35.8269318"
  },
  {
    "name": "Husseini Hospital",
    "phone_numbers": ["06600005", "06600006"],
    "location": "Tripoli",
    "latitude": "34.44702",
    "longitude": "35.82152"
  },
  {
    "name": "Al Oumahat Hospital",
    "phone_numbers": ["06200552"],
    "location": "Tripoli",
    "latitude": "34.44411",
    "longitude": "35.83401"
  },
  {
    "name": "Melki Hospital",
    "phone_numbers": ["06602330", "06602331", "06602332"],
    "location": "Tripoli",
    "latitude": "34.44638",
    "longitude": "35.83002"
  },
  {
    "name": "Chahine Hospital",
    "phone_numbers": ["06430250", "06625796"],
    "location": "Tripoli",
    "latitude": "34.4483",
    "longitude": "35.8167"
  },
  {
    "name": "Al Bissar Hospital",
    "phone_numbers": ["06430365", "06432267"],
    "location": "Tripoli",
    "latitude": "34.4394162",
    "longitude": "35.8355691"
  },
  {
    "name": "Al Zahraa Hospital",
    "phone_numbers": ["06430185"],
    "location": "Tripoli",
    "latitude": "34.44256",
    "longitude": "35.85371"
  },
  {
    "name": "Tripoli Governmental Hospital",
    "phone_numbers": ["06385371", "06385372"],
    "location": "Tripoli",
    "latitude": "34.4374228",
    "longitude": "35.8602605"
  },
  {
    "name": "Hanan Al Khayri Hospital",
    "phone_numbers": ["06200526", "06200527", "06206527"],
    "location": "Tripoli",
    "latitude": "34.44321",
    "longitude": "35.83434"
  },
  {
    "name": "Dounnieh Governmental Hospital",
    "phone_numbers": ["06491911"],
    "location": "Dounnieh",
    "latitude": "34.38249439942173",
    "longitude": "36.00861981103954"
  },
  {
    "name": "Orange Nasso Hospital",
    "phone_numbers": ["06441763", "06435997", "06441764"],
    "location": "Tripoli",
    "latitude": "34.4425827",
    "longitude": "35.8385829"
  },
  {
    "name": "Batroun Hospital",
    "phone_numbers": ["06740970", "06742017", "06742970", "06742971", "06742972"],
    "location": "Batroun",
    "latitude": "34.2513465",
    "longitude": "35.6660325"
  },
  {
    "name": "Tannourine Hospital",
    "phone_numbers": [
      "06520555", "06520862", "06520863", "06520864", "06520865", "06520866", "06520867", "06520868"
    ],
    "location": "Tannourine",
    "latitude": "34.2126769",
    "longitude": "35.860967"
  },
  {
    "name": "Koura Hospital",
    "phone_numbers": ["06930981", "06930982", "06930983", "06930984", "06930985"],
    "location": "Koura",
    "latitude": "34.3487073",
    "longitude": "35.837859"
  },
  {
    "name": "Bourji Hospital",
    "phone_numbers": ["06950530", "06950150"],
    "location": "Amioun",
    "latitude": "34.2989",
    "longitude": "35.8221"
  },
  {
    "name": "Centre Hopitalier Du Nord",
    "phone_numbers": [
      "06555230",
      "06555231",
      "06555232",
      "06555233",
      "06555234",
      "06555235",
      "06555236",
      "06555237",
      "06555238"
    ],
    "location": "Zgharta",
    "latitude": "34.3695236",
    "longitude": "35.8983096"
  },
  {
    "name": "Hopital Notre Dame De Zgharta",
    "phone_numbers": [
      "06663575",
      "06663576",
      "06662871",
      "06662872",
      "06662873",
      "06662874",
      "06662875",
      "06662876-06669300"
    ],
    "location": "Zgharta",
    "latitude": "34.39888",
    "longitude": "35.8933"
  },
  {
    "name": "Al Rahban Hospital",
    "phone_numbers": ["06660525", "06660057", "06662871", "06662872"],
    "location": "Zgharta",
    "latitude": "34.41162",
    "longitude": "35.87317"
  },
  {
    "name": "Ehden Hospital",
    "phone_numbers": ["06561701", "06561702"],
    "location": "Bcharre",
    "latitude": "34.2500643",
    "longitude": "36.0105271"
  },
  {
    "name": "El Youssef Medical Center",
    "phone_numbers": ["06690537", "06690455", "06692035", "06692036"],
    "location": "Halba",
    "latitude": "34.542908",
    "longitude": "36.0724105"
  },
  {
    "name": "Rahal Hospital",
    "phone_numbers": ["06690000", "06691103"],
    "location": "Halba",
    "latitude": "34.549991",
    "longitude": "36.0788952"
  },
  {
    "name": "Halba Governmental Hospital",
    "phone_numbers": ["06694455"],
    "location": "Halba",
    "latitude": "34.535182",
    "longitude": "36.0935829"
  },
  {
    "name": "Khayr Hospital",
    "phone_numbers": ["06461444", "06461555", "06461666"],
    "location": "Miniyeh",
    "latitude": "34.482616",
    "longitude": "35.9403741"
  },
  {
    "name": "Notre Dame De La Paix Hospital",
    "phone_numbers": [
      "06351670", "06351671", "06351672", "06351673", "06351674", "06351675", "06351676"
    ],
    "location": "Al Qoubaiyat",
    "latitude": "34.57143",
    "longitude": "36.2698"
  },
  {
    "name": "St. Charles Hospital",
    "phone_numbers": ["05451100", "05953444"],
    "location": "Baabda",
    "latitude": "33.8445329",
    "longitude": "35.5506849"
  },
  {
    "name": "Sacre Coeur Hospital",
    "phone_numbers": ["05453500", "05451805", "05952834"],
    "location": "Baabda",
    "latitude": "33.8497447",
    "longitude": "35.5389213"
  },
  {
    "name": "Baabda Governmental Hospital",
    "phone_numbers": ["05920040", "05920041", "05920872", "05923604", "05920755"],
    "location": "Baabda",
    "latitude": "33.83497",
    "longitude": "35.53833"
  },
  {
    "name": "St. Therese Hospital",
    "phone_numbers": ["05463100", "05463101", "05464480", "05464481", "05464482", "05466780"],
    "location": "Hadath",
    "latitude": "33.8448722",
    "longitude": "35.5274665"
  },
  {
    "name": "St. Georges Baabda Hospital",
    "phone_numbers": ["05463922", "05462624", "05463925"],
    "location": "Baabda",
    "latitude": "33.83687",
    "longitude": "35.52753"
  },
  {
    "name": "Ghoussain Hospital",
    "phone_numbers": ["05450766", "05456334", "05450768", "05450769"],
    "location": "Baabda",
    "latitude": "33.85432",
    "longitude": "35.54023"
  },
  {
    "name": "Iman Hospital",
    "phone_numbers": ["05555970", "05557038", "05557039", "05557040", "05554264"],
    "location": "Aley",
    "latitude": "33.81083",
    "longitude": "35.61292"
  },
  {
    "name": "National Hospital",
    "phone_numbers": ["05557880", "05557885"],
    "location": "Aley",
    "latitude": "33.80614",
    "longitude": "35.59546"
  },
  {
    "name": "Al Ouyoun Hospital",
    "phone_numbers": ["05554449"],
    "location": "Aley",
    "latitude": "33.80943",
    "longitude": "35.60257"
  },
  {
    "name": "Aazounieh Hospital",
    "phone_numbers": ["05220160", "05220405", "05220406", "05220407"],
    "location": "Ain Dara",
    "latitude": "33.77262",
    "longitude": "35.70514"
  },
  {
    "name": "Ain Wa Zain Hospital",
    "phone_numbers": [
      "05501515",
      "05501516",
      "05509001",
      "05509002",
      "05509003",
      "05509004",
      "05509005",
      "05509006",
      "05509007"
    ],
    "location": "Ain W Zain",
    "latitude": "33.6807617",
    "longitude": "35.6106573"
  },
  {
    "name": "Baakline Hospital",
    "phone_numbers": ["05300882", "05301095", "03200751"],
    "location": "Baakline",
    "latitude": "33.678694",
    "longitude": "35.5739884"
  },
  {
    "name": "Aarfan Hospital",
    "phone_numbers": ["05501678", "05500877"],
    "location": "Samqaniyeh",
    "latitude": "33.6752996",
    "longitude": "35.5924987"
  },
  {
    "name": "Mazboud Hospital",
    "phone_numbers": ["07940777", "07813666", "07970380", "07970381"],
    "location": "Mazboud",
    "latitude": "33.6140394",
    "longitude": "35.4724178"
  },
  {
    "name": "Outhman Hospital",
    "phone_numbers": ["07970000"],
    "location": "Mazboud",
    "latitude": "33.6139471",
    "longitude": "35.4650839"
  },
  {
    "name": "Al Shehar Hospital",
    "phone_numbers": ["05410712", "05410713"],
    "location": "Ain Ksour",
    "latitude": "33.7529",
    "longitude": "35.5449"
  },
  {
    "name": "Jounblat Hospital",
    "phone_numbers": ["05430966", "05432525"],
    "location": "Chouaifet El Aamroussieh",
    "latitude": "33.8167",
    "longitude": "35.5167"
  },
  {
    "name": "Bashour Hospital",
    "phone_numbers": ["07740132", "07740008"],
    "location": "Sour",
    "latitude": "33.273",
    "longitude": "35.19503"
  },
  {
    "name": "Jabal Aamel Hospital",
    "phone_numbers": ["07740343", "07740198", "07343852"],
    "location": "Aabbasiyyeh",
    "latitude": "33.2783662",
    "longitude": "35.2181725"
  },
  {
    "name": "Najem Hospital",
    "phone_numbers": ["07741595", "07344423"],
    "location": "Sour",
    "latitude": "33.25346",
    "longitude": "35.22439"
  },
  {
    "name": "Sour Governmental Hospital",
    "phone_numbers": ["07343640", "07740293"],
    "location": "Sour",
    "latitude": "33.27423",
    "longitude": "35.21375"
  },
  {
    "name": "Hiram Hospital",
    "phone_numbers": ["07343670", "07741727", "07343710", "07343714", "07343715"],
    "location": "Aabbasiyyeh",
    "latitude": "33.2819113",
    "longitude": "35.2228761"
  },
  {
    "name": "Tebnine Hospital",
    "phone_numbers": ["07325455", "07325456"],
    "location": "Tibnine",
    "latitude": "33.1968471",
    "longitude": "35.4155579"
  },
  {
    "name": "Marjeyoun Hospital",
    "phone_numbers": ["07830397", "07830066", "07830067"],
    "location": "Bint Jbeil",
    "latitude": "33.130578",
    "longitude": "35.4300335"
  },
  {
    "name": "Bint Jbeil Hospital",
    "phone_numbers": ["03705678"],
    "location": "Aainata",
    "latitude": "33.12751",
    "longitude": "35.4356524"
  }
]
